{
"type": "FeatureCollection",
"name": "Canvass_Launch_Locations_geocodePrep_1669143928_geocoded",
"crs": { "type": "name", "properties": { "name": "urn:ogc:def:crs:OGC:1.3:CRS84" } },
"features": [
{ "type": "Feature", "properties": { "NAME": "Kucinski-Murphy Park", "ADDRESS": "1635 W 33rd Pl", "CITY": "Chicago", "STATE": "IL", "ZIP": 60608, "Longitude": -87.666891005222269, "Latitude": 41.833177461862952, "Zones": "40, 41, 42, 43", "Street Canvass": "Park", "Bathroom": "", "Notes": "" }, "geometry": { "type": "Point", "coordinates": [ -87.666891005222269, 41.833177461862952 ] } },
{ "type": "Feature", "properties": { "NAME": "Sun Yat-Sen Park", "ADDRESS": "251 W 24th Pl", "CITY": "Chicago", "STATE": "IL", "ZIP": 60608, "Longitude": -87.633981234656318, "Latitude": 41.848147262256823, "Zones": "3, 4, 1", "Street Canvass": "", "Bathroom": "", "Notes": "also East half of Zone 10" }, "geometry": { "type": "Point", "coordinates": [ -87.633981234656318, 41.848147262256823 ] } },
{ "type": "Feature", "properties": { "NAME": "Bosley (William) Park", "ADDRESS": "3044 S Bonfield St", "CITY": "Chicago", "STATE": "IL", "ZIP": 60608, "Longitude": -87.65366880579559, "Latitude": 41.839332022629343, "Zones": "12, 14, 19, 22, 23", "Street Canvass": "31st/Morgan", "Bathroom": "", "Notes": "" }, "geometry": { "type": "Point", "coordinates": [ -87.65366880579559, 41.839332022629343 ] } },
{ "type": "Feature", "properties": { "NAME": "Armour Square Park", "ADDRESS": "3309 S Shields Ave", "CITY": "Chicago", "STATE": "IL", "ZIP": 60616, "Longitude": -87.635229456999795, "Latitude": 41.834205022004539, "Zones": "5, 7, 33, 34, 37", "Street Canvass": "Stay in the park", "Bathroom": "", "Notes": "could launch into south armour square (zone 6 & 8)" }, "geometry": { "type": "Point", "coordinates": [ -87.635229456999795, 41.834205022004539 ] } },
{ "type": "Feature", "properties": { "NAME": "McKeon Park", "ADDRESS": "3548 S Wallace St", "CITY": "Chicago", "STATE": "IL", "ZIP": 60609, "Longitude": -87.641276863129619, "Latitude": 41.829399035236058, "Zones": "26, 29, 30, 32", "Street Canvass": "Park, 35th/Halsted", "Bathroom": "", "Notes": "" }, "geometry": { "type": "Point", "coordinates": [ -87.641276863129619, 41.829399035236058 ] } },
{ "type": "Feature", "properties": { "NAME": "Donovan Park", "ADDRESS": "3620 S Lituanica Ave", "CITY": "Chicago", "STATE": "IL", "ZIP": 60609, "Longitude": -87.647687479689623, "Latitude": 41.828135979281797, "Zones": "25, 26, 29, 32", "Street Canvass": "Park, Morgan Ave", "Bathroom": "", "Notes": "" }, "geometry": { "type": "Point", "coordinates": [ -87.647687479689623, 41.828135979281797 ] } },
{ "type": "Feature", "properties": { "NAME": "Armour Elementary Park", "ADDRESS": "922 W 33rd St", "CITY": "Chicago", "STATE": "IL", "ZIP": 60608, "Longitude": -87.649053444147867, "Latitude": 41.834847290725712 }, "geometry": { "type": "Point", "coordinates": [ -87.649053444147867, 41.834847290725712 ] } },
{ "type": "Feature", "properties": { "NAME": "Wilson (John P.) Park", "ADDRESS": "1122 W 34th Pl", "CITY": "Chicago", "STATE": "IL", "ZIP": 60608, "Longitude": -87.654439857068681, "Latitude": 41.831585802990787, "Zones": "15, 16, 17, 18, 19", "Street Canvass": "Park, Racine (outside bridgeport art center)", "Bathroom": "", "Notes": "Can send to zone 20 if needed" }, "geometry": { "type": "Point", "coordinates": [ -87.654439857068681, 41.831585802990787 ] } },
{ "type": "Feature", "properties": { "NAME": "\"Eleanor street boathouse\" Jacolik (Florian S.) Park", "ADDRESS": "2731 S Eleanor St", "CITY": "Chicago", "STATE": "IL", "ZIP": 60608, "Longitude": -87.661203801474144, "Latitude": 41.844030330816238, "Zones": "10, 11, 13, 15", "Street Canvass": "park", "Bathroom": "", "Notes": "Closed?" }, "geometry": { "type": "Point", "coordinates": [ -87.661203801474144, 41.844030330816238 ] } },
{ "type": "Feature", "properties": { "NAME": "Park No. 571", "ADDRESS": "2754 S Eleanor St", "CITY": "Chicago", "STATE": "IL", "ZIP": 60608, "Longitude": -87.662358660093744, "Latitude": 41.843471886517349, "Zones": "10, 11, 13", "Street Canvass": "park", "Bathroom": "", "Notes": "Is accross I-55 walkable? if so we can add 12,14, 15" }, "geometry": { "type": "Point", "coordinates": [ -87.662358660093744, 41.843471886517349 ] } },
{ "type": "Feature", "properties": { "NAME": "Lauridsen (Taylor) Park", "ADDRESS": "704 W 42nd St", "CITY": "Chicago", "STATE": "IL", "ZIP": 60609, "Longitude": -87.643533099661994, "Latitude": 41.817643930670272, "Zones": "44, 45, 46", "Street Canvass": "Park", "Bathroom": "", "Notes": "" }, "geometry": { "type": "Point", "coordinates": [ -87.643533099661994, 41.817643930670272 ] } },
{ "type": "Feature", "properties": { "NAME": "Sidewalk by St Jerome Church", "ADDRESS": "2823 S Princeton Ave", "CITY": "Chicago", "STATE": "IL", "ZIP": 60616, "Longitude": -87.634164117106238, "Latitude": 41.841882719584703, "Zones": "6, 8,  9", "Street Canvass": "", "Bathroom": "", "Notes": "" }, "geometry": { "type": "Point", "coordinates": [ -87.634164117106238, 41.841882719584703 ] } },
{ "type": "Feature", "properties": { "NAME": "Humbert Park", "ADDRESS": "3050 S Lowe Ave", "CITY": "Chicago", "STATE": "IL", "ZIP": 60616, "Longitude": -87.642704992322237, "Latitude": 41.838382079047108, "Zones": "24, 27, 36, 39", "Street Canvass": "Park, 31st/Halsted, ", "Bathroom": "", "Notes": "" }, "geometry": { "type": "Point", "coordinates": [ -87.642704992322237, 41.838382079047108 ] } },
{ "type": "Feature", "properties": { "NAME": "McGuane Park", "ADDRESS": "2901 S Poplar Ave", "CITY": "Chicago", "STATE": "IL", "ZIP": 60608, "Longitude": -87.649098489270017, "Latitude": 41.840742110200658, "Zones": "24, 28, 31", "Street Canvass": "31st/Halsted, Palmsiano Park", "Bathroom": "", "Notes": "" }, "geometry": { "type": "Point", "coordinates": [ -87.649098489270017, 41.840742110200658 ] } },
{ "type": "Feature", "properties": { "NAME": "Ping Tom Park", "ADDRESS": "1700 S Wentworth Ave", "CITY": "Chicago", "STATE": "IL", "ZIP": 60616, "Longitude": -87.631910726256805, "Latitude": 41.858362295598901, "Zones": "2", "Street Canvass": "", "Bathroom": "", "Notes": "" }, "geometry": { "type": "Point", "coordinates": [ -87.631910726256805, 41.858362295598901 ] } },
{ "type": "Feature", "properties": { "NAME": "Campaign Office", "ADDRESS": "3100 S Morgan St", "CITY": "Chicago", "STATE": "IL", "ZIP": 60608, "Longitude": -87.651154737757238, "Latitude": 41.837473838514398, "Zones": "23, 22, 19, 21", "Street Canvass": "", "Bathroom": "", "Notes": "" }, "geometry": { "type": "Point", "coordinates": [ -87.651154737757238, 41.837473838514398 ] } }
]
}
